[
  {
    "id": "0174da2a-7609-4a61-b55e-932f4b6fbbfc",
    "name": "Taqueria Fiesta Charra",
    "street_address": "318 Enrique M. Barrera Pkwy",
    "city": "San Antonio",
    "state": "TX",
    "zip": "78237",
    "latitude": 29.4292484,
    "longitude": -98.56623599999999,
    "phone": "(210) 432-3334",
    "website": "",
    "yelp_id": null,
    "google_rating": 4.2,
    "google_price_level": 1,
    "google_user_ratings_total": null,
    "created_at": "2025-06-08T05:15:49.764202",
    "updated_at": "2025-06-08T05:15:49.764202"
  },
  {
    "id": "025686ea-7ab1-4cbd-b5bb-dd0196001597",
    "name": "Chelaâ€™s Tacos Mexican Restaurant",
    "street_address": "5231 Broadway suite 157",
    "city": "Alamo Heights",
    "state": "TX",
    "zip": "78209",
    "latitude": 29.4758551,
    "longitude": -98.4631993,
    "phone": "(210) 753-1040",
    "website": "",
    "yelp_id": null,
    "google_rating": 3.2,
    "google_price_level": 1,
    "google_user_ratings_total": null,
    "created_at": "2025-06-08T05:15:23.085663",
    "updated_at": "2025-06-08T05:15:23.085663"
  },
  {
    "id": "08e741b4-34c6-45ce-9e51-d4daf46e42a5",
    "name": "El Noa Noa Mexican Cafe",
    "street_address": "1502 N Zarzamora St",
    "city": "San Antonio",
    "state": "TX",
    "zip": "78207",
    "latitude": 29.4430149,
    "longitude": -98.52501439999999,
    "phone": "(210) 475-3228",
    "website": "",
    "yelp_id": null,
    "google_rating": 4.3,
    "google_price_level": 1,
    "google_user_ratings_total": null,
    "created_at": "2025-06-08T05:15:39.737772",
    "updated_at": "2025-06-08T05:15:39.737772"
  },
  {
    "id": "09b5333d-75bb-4129-b15d-a0a319909ba7",
    "name": "Taqueria Los Potrillos",
    "street_address": "3023 S WW White Rd",
    "city": "San Antonio",
    "state": "TX",
    "zip": "78222",
    "latitude": 29.3761559,
    "longitude": -98.40479619999999,
    "phone": "(210) 359-9774",
    "website": "https://www.facebook.com/los.potrillos.16752",
    "yelp_id": null,
    "google_rating": 3.9,
    "google_price_level": 1,
    "google_user_ratings_total": null,
    "created_at": "2025-06-08T05:15:35.254188",
    "updated_at": "2025-06-08T05:15:35.254188"
  },
  {
    "id": "09e103b2-a3b1-4083-a3e5-5b1c3265785c",
    "name": "Taco Palenque Broadway",
    "street_address": "1002 NE Interstate 410 Loop",
    "city": "San Antonio",
    "state": "TX",
    "zip": "78209",
    "latitude": 29.5155699,
    "longitude": -98.4593342,
    "phone": "(210) 826-5313",
    "website": "",
    "yelp_id": null,
    "google_rating": 4.4,
    "google_price_level": 2,
    "google_user_ratings_total": null,
    "created_at": "2025-06-08T05:15:40.776353",
    "updated_at": "2025-06-08T05:15:40.776353"
  },
  {
    "id": "0b2c1c5a-98b6-4f6e-988d-7e5b3e4b4690",
    "name": "Tacos El Rey",
    "street_address": "1821 Castroville Rd",
    "city": "San Antonio",
    "state": "TX",
    "zip": "78237",
    "latitude": 29.4141369,
    "longitude": -98.5656903,
    "phone": "(210) 432-3663",
    "website": "https://www.facebook.com/TacosElReySA/",
    "yelp_id": null,
    "google_rating": 4.3,
    "google_price_level": 1,
    "google_user_ratings_total": null,
    "created_at": "2025-06-08T05:15:32.029407",
    "updated_at": "2025-06-08T05:15:32.029407"
  },
  {
    "id": "0bdae613-2a0f-4ba3-8094-9c61dbc67597",
    "name": "Tacos El Pelon",
    "street_address": "2355 Goliad Rd",
    "city": "San Antonio",
    "state": "TX",
    "zip": "78223",
    "latitude": 29.361057,
    "longitude": -98.4374241,
    "phone": "(210) 459-3796",
    "website": "",
    "yelp_id": null,
    "google_rating": 4.7,
    "google_price_level": 1,
    "google_user_ratings_total": null,
    "created_at": "2025-06-08T05:15:35.519822",
    "updated_at": "2025-06-08T05:15:35.519822"
  },
  {
    "id": "0edaea92-f73d-4f47-b053-b48050b256f6",
    "name": "Bertha's Mexican Restaurant",
    "street_address": "2629 W Martin St",
    "city": "San Antonio",
    "state": "TX",
    "zip": "78207",
    "latitude": 29.43176059999999,
    "longitude": -98.5217679,
    "phone": "(210) 860-6143",
    "website": "",
    "yelp_id": null,
    "google_rating": 4.5,
    "google_price_level": 1,
    "google_user_ratings_total": null,
    "created_at": "2025-06-08T05:15:54.547298",
    "updated_at": "2025-06-08T05:15:54.547298"
  },
  {
    "id": "0f35d15d-98db-428c-9da7-48f1bba5715c",
    "name": "The Original Rocky's Taco House",
    "street_address": "2423 Pleasanton Rd",
    "city": "San Antonio",
    "state": "TX",
    "zip": "78221",
    "latitude": 29.3547789,
    "longitude": -98.50414479999999,
    "phone": "(210) 921-9449",
    "website": "https://rockystacohouse.shop/",
    "yelp_id": null,
    "google_rating": 3.9,
    "google_price_level": 1,
    "google_user_ratings_total": null,
    "created_at": "2025-06-08T05:15:51.518474",
    "updated_at": "2025-06-08T05:15:51.518474"
  },
  {
    "id": "0f687fc9-4289-4242-ae58-279f58067f08",
    "name": "Taqueria Mi Chapala Jalisco",
    "street_address": "1808 N New Braunfels Ave",
    "city": "San Antonio",
    "state": "TX",
    "zip": "78208",
    "latitude": 29.44064079999999,
    "longitude": -98.4607772,
    "phone": "(210) 368-2966",
    "website": "",
    "yelp_id": null,
    "google_rating": 3.9,
    "google_price_level": 1,
    "google_user_ratings_total": null,
    "created_at": "2025-06-08T05:15:38.541896",
    "updated_at": "2025-06-08T05:15:38.541896"
  },
  {
    "id": "107c407c-2daa-4079-b991-29e7428d3d04",
    "name": "Taqueria El Chilaquil",
    "street_address": "1821 W Commerce St",
    "city": "San Antonio",
    "state": "TX",
    "zip": "78207",
    "latitude": 29.427382,
    "longitude": -98.5150997,
    "phone": "(210) 226-5410",
    "website": "",
    "yelp_id": null,
    "google_rating": 3.8,
    "google_price_level": 1,
    "google_user_ratings_total": null,
    "created_at": "2025-06-08T05:15:24.484661",
    "updated_at": "2025-06-08T05:15:24.484661"
  },
  {
    "id": "110c3851-9725-410e-a15f-34f84fc76ab4",
    "name": "El Mana Mexican Restaurant",
    "street_address": "6606 S Zarzamora St",
    "city": "San Antonio",
    "state": "TX",
    "zip": "78211",
    "latitude": 29.3629015,
    "longitude": -98.5337361,
    "phone": "(210) 592-1125",
    "website": "",
    "yelp_id": null,
    "google_rating": 4.6,
    "google_price_level": 1,
    "google_user_ratings_total": null,
    "created_at": "2025-06-08T05:15:32.279379",
    "updated_at": "2025-06-08T05:15:32.279379"
  },
  {
    "id": "12bfe461-02f0-4c62-b438-be02b11a6a4b",
    "name": "Taqueria La Tapatia",
    "street_address": "6731 S Flores St",
    "city": "San Antonio",
    "state": "TX",
    "zip": "78221",
    "latitude": 29.3537679,
    "longitude": -98.49017350000001,
    "phone": "(210) 924-6181",
    "website": "",
    "yelp_id": null,
    "google_rating": 4.0,
    "google_price_level": 1,
    "google_user_ratings_total": null,
    "created_at": "2025-06-08T05:15:36.282166",
    "updated_at": "2025-06-08T05:15:36.282166"
  },
  {
    "id": "1328c5e0-4aeb-4b23-a65e-d717cd6a09c2",
    "name": "Mini tacos \"El Viejon\"",
    "street_address": "830 SE Military Dr SE",
    "city": "San Antonio",
    "state": "TX",
    "zip": "78214",
    "latitude": 29.3561222,
    "longitude": -98.48707619999999,
    "phone": "(346) 779-6821",
    "website": "",
    "yelp_id": null,
    "google_rating": 4.8,
    "google_price_level": null,
    "google_user_ratings_total": null,
    "created_at": "2025-06-08T05:15:37.792553",
    "updated_at": "2025-06-08T05:15:37.792553"
  },
  {
    "id": "152ede60-36cd-488a-b07d-5344b481c264",
    "name": "Minitacos El Chaparro",
    "street_address": "3106 Pleasanton Rd",
    "city": "San Antonio",
    "state": "TX",
    "zip": "78221",
    "latitude": 29.3482878,
    "longitude": -98.50336800000001,
    "phone": "(210) 707-8891",
    "website": "",
    "yelp_id": null,
    "google_rating": 4.6,
    "google_price_level": null,
    "google_user_ratings_total": null,
    "created_at": "2025-06-08T05:15:25.953405",
    "updated_at": "2025-06-08T05:15:25.953405"
  },
  {
    "id": "154587bd-2187-4f0c-99ad-d00df8703a34",
    "name": "La Sultana Del Norte Taqueria",
    "street_address": "4403 Blanco Rd",
    "city": "San Antonio",
    "state": "TX",
    "zip": "78212",
    "latitude": 29.4873801,
    "longitude": -98.50818,
    "phone": "(210) 732-2244",
    "website": "http://lasultanadelnorte.com/",
    "yelp_id": null,
    "google_rating": 4.4,
    "google_price_level": 1,
    "google_user_ratings_total": null,
    "created_at": "2025-06-08T05:15:25.220914",
    "updated_at": "2025-06-08T05:15:25.220914"
  },
  {
    "id": "155ed4bb-a0f2-493d-bb8f-41f2b72d1a4e",
    "name": "Tacos Martinez",
    "street_address": "5034 W Commerce St",
    "city": "San Antonio",
    "state": "TX",
    "zip": "78237",
    "latitude": 29.4310991,
    "longitude": -98.56014379999999,
    "phone": "(210) 436-1729",
    "website": "https://www.facebook.com/profile.php?id=100063493873117",
    "yelp_id": null,
    "google_rating": 4.3,
    "google_price_level": 1,
    "google_user_ratings_total": null,
    "created_at": "2025-06-08T05:15:42.276286",
    "updated_at": "2025-06-08T05:15:42.276286"
  },
  {
    "id": "1a8f06d9-0d39-4ad0-97eb-c98578dbee7f",
    "name": "Melendez Mexican Restaurant",
    "street_address": "4973 Walzem Rd",
    "city": "San Antonio",
    "state": "TX",
    "zip": "78218",
    "latitude": 29.5107466,
    "longitude": -98.3916623,
    "phone": "(210) 265-3131",
    "website": "",
    "yelp_id": null,
    "google_rating": 4.4,
    "google_price_level": 1,
    "google_user_ratings_total": null,
    "created_at": "2025-06-08T05:15:31.257262",
    "updated_at": "2025-06-08T05:15:31.257262"
  },
  {
    "id": "2069f4fd-ae24-4d27-82fa-7e2df1afacb6",
    "name": "Linda's Mexican Restaurant",
    "street_address": "1424 Guadalupe St",
    "city": "San Antonio",
    "state": "TX",
    "zip": "78207",
    "latitude": 29.4184118,
    "longitude": -98.51656589999999,
    "phone": "(210) 271-7120",
    "website": "https://lindasmex.top/",
    "yelp_id": null,
    "google_rating": 4.3,
    "google_price_level": 1,
    "google_user_ratings_total": null,
    "created_at": "2025-06-08T05:15:52.520759",
    "updated_at": "2025-06-08T05:15:52.520759"
  },
  {
    "id": "231895ef-e1df-44cb-a80d-3b9b02a7c529",
    "name": "Taqueria Jalisco #5",
    "street_address": "6632 S Zarzamora St",
    "city": "San Antonio",
    "state": "TX",
    "zip": "78211",
    "latitude": 29.3619253,
    "longitude": -98.5335995,
    "phone": "(210) 921-9270",
    "website": "https://www.taqueriajaliscotex.com/",
    "yelp_id": null,
    "google_rating": 4.0,
    "google_price_level": 1,
    "google_user_ratings_total": null,
    "created_at": "2025-06-08T05:15:58.901655",
    "updated_at": "2025-06-08T05:15:58.901655"
  },
  {
    "id": "24a4eb36-7d6a-4a83-b52c-520540c5591e",
    "name": "Tia's Taco Hut",
    "street_address": "2402 SE Military Dr #105",
    "city": "San Antonio",
    "state": "TX",
    "zip": "78223",
    "latitude": 29.3514286,
    "longitude": -98.45501120000002,
    "phone": "(210) 368-9087",
    "website": "https://www.tiastacohuttx.com/",
    "yelp_id": null,
    "google_rating": 4.0,
    "google_price_level": 2,
    "google_user_ratings_total": null,
    "created_at": "2025-06-08T05:15:46.017153",
    "updated_at": "2025-06-08T05:15:46.017153"
  },
  {
    "id": "25abcb21-0bf7-4775-9368-42d0538a2776",
    "name": "Chipilos Mexican Cuisine",
    "street_address": "814 West Ave",
    "city": "San Antonio",
    "state": "TX",
    "zip": "78201",
    "latitude": 29.4701675,
    "longitude": -98.52571619999999,
    "phone": "(210) 437-4505",
    "website": "https://chipilosmexicancuisine.com/",
    "yelp_id": null,
    "google_rating": 4.9,
    "google_price_level": 1,
    "google_user_ratings_total": null,
    "created_at": "2025-06-08T05:15:36.026229",
    "updated_at": "2025-06-08T05:15:36.026229"
  },
  {
    "id": "25ced663-869a-4c24-bec8-7958ce2b0ce7",
    "name": "Mini tacos dino",
    "street_address": "1610 Roosevelt Ave",
    "city": "San Antonio",
    "state": "TX",
    "zip": "78210",
    "latitude": 29.38739859999999,
    "longitude": -98.485567,
    "phone": "",
    "website": "",
    "yelp_id": null,
    "google_rating": 4.9,
    "google_price_level": null,
    "google_user_ratings_total": null,
    "created_at": "2025-06-08T05:15:50.749199",
    "updated_at": "2025-06-08T05:15:50.749199"
  },
  {
    "id": "26c992db-ec10-4dfd-ba67-98d4e6856d54",
    "name": "Tiaâ€™s Taco Hut",
    "street_address": "1203 N St Mary's St",
    "city": "San Antonio",
    "state": "TX",
    "zip": "78215",
    "latitude": 29.4343458,
    "longitude": -98.48624749999999,
    "phone": "(210) 248-9533",
    "website": "https://www.tiastacohuttx.com/",
    "yelp_id": null,
    "google_rating": 3.9,
    "google_price_level": 1,
    "google_user_ratings_total": null,
    "created_at": "2025-06-08T05:15:47.255857",
    "updated_at": "2025-06-08T05:15:47.255857"
  },
  {
    "id": "28ada7ac-df14-40d6-9aac-058fac2ce346",
    "name": "Panchito's Mexican Restaurant",
    "street_address": "4100 McCullough Ave",
    "city": "San Antonio",
    "state": "TX",
    "zip": "78212",
    "latitude": 29.4684777,
    "longitude": -98.4915305,
    "phone": "(210) 821-5338",
    "website": "https://www.panchitos.net/",
    "yelp_id": null,
    "google_rating": 4.4,
    "google_price_level": 2,
    "google_user_ratings_total": null,
    "created_at": "2025-06-08T05:15:56.333117",
    "updated_at": "2025-06-08T05:15:56.333117"
  },
  {
    "id": "28e352c2-2487-4b43-8d2c-56b064c60898",
    "name": "Las Rancheritas Cafe",
    "street_address": "902 S San Augustine Ave",
    "city": "San Antonio",
    "state": "TX",
    "zip": "78237",
    "latitude": 29.418186,
    "longitude": -98.556174,
    "phone": "(210) 399-1185",
    "website": "http://lasrancheritascafe.com/",
    "yelp_id": null,
    "google_rating": 4.3,
    "google_price_level": 1,
    "google_user_ratings_total": null,
    "created_at": "2025-06-08T05:15:51.001641",
    "updated_at": "2025-06-08T05:15:51.001641"
  },
  {
    "id": "33a0c3db-b44a-4397-ad68-d480c4da47af",
    "name": "Torchy's Tacos",
    "street_address": "999 E Basse Rd",
    "city": "San Antonio",
    "state": "TX",
    "zip": "78209",
    "latitude": 29.497568,
    "longitude": -98.470455,
    "phone": "(210) 824-1603",
    "website": "https://torchystacos.com/?olonwp=JjBtp_vMLk25gkYh_bnoiQ",
    "yelp_id": null,
    "google_rating": 4.4,
    "google_price_level": 1,
    "google_user_ratings_total": null,
    "created_at": "2025-06-08T05:15:47.756538",
    "updated_at": "2025-06-08T05:15:47.756538"
  },
  {
    "id": "36642d57-b104-4faa-9798-b31ec6730234",
    "name": "A Whole Lotta Enchilada",
    "street_address": "4822 S Zarzamora St",
    "city": "San Antonio",
    "state": "TX",
    "zip": "78211",
    "latitude": 29.3775096,
    "longitude": -98.53394019999999,
    "phone": "(210) 231-0083",
    "website": "",
    "yelp_id": null,
    "google_rating": 4.8,
    "google_price_level": 1,
    "google_user_ratings_total": null,
    "created_at": "2025-06-08T05:15:55.585256",
    "updated_at": "2025-06-08T05:15:55.585256"
  },
  {
    "id": "385a6b24-704a-41d2-bd20-a73a6f632fd2",
    "name": "Con Huevos Tacos",
    "street_address": "1629 E Houston St",
    "city": "San Antonio",
    "state": "TX",
    "zip": "78202",
    "latitude": 29.4253072,
    "longitude": -98.47192,
    "phone": "(210) 229-9295",
    "website": "https://order.toasttab.com/online/con-huevos-tacos",
    "yelp_id": null,
    "google_rating": 4.6,
    "google_price_level": 2,
    "google_user_ratings_total": null,
    "created_at": "2025-06-08T05:15:43.077983",
    "updated_at": "2025-06-08T05:15:43.077983"
  },
  {
    "id": "399e763f-21f4-4513-b08b-61c394f93e5f",
    "name": "Taqueria La Perla de Jalisco",
    "street_address": "2255 SE Military Dr",
    "city": "San Antonio",
    "state": "TX",
    "zip": "78223",
    "latitude": 29.3521693,
    "longitude": -98.4593414,
    "phone": "(210) 532-5550",
    "website": "",
    "yelp_id": null,
    "google_rating": 4.1,
    "google_price_level": 1,
    "google_user_ratings_total": null,
    "created_at": "2025-06-08T05:15:38.792921",
    "updated_at": "2025-06-08T05:15:38.792921"
  },
  {
    "id": "3ba8b8b7-4807-495f-b064-d09932bf8f20",
    "name": "Acenar Mexican Restaurant",
    "street_address": "146 E Houston St",
    "city": "San Antonio",
    "state": "TX",
    "zip": "78205",
    "latitude": 29.4263466,
    "longitude": -98.49183560000002,
    "phone": "(210) 222-2362",
    "website": "http://acenar.com/",
    "yelp_id": null,
    "google_rating": 4.2,
    "google_price_level": 2,
    "google_user_ratings_total": null,
    "created_at": "2025-06-08T05:16:01.619412",
    "updated_at": "2025-06-08T05:16:01.619412"
  },
  {
    "id": "3bc47b8c-eb69-4bda-8753-053781bbdca6",
    "name": "Taqueria El Rodeo De Jalisco",
    "street_address": "3802 Northwest Loop 410",
    "city": "San Antonio",
    "state": "TX",
    "zip": "78229",
    "latitude": 29.4922104,
    "longitude": -98.5561829,
    "phone": "(210) 733-6776",
    "website": "https://taqueriaelrodeodejalisco.shop/",
    "yelp_id": null,
    "google_rating": 4.3,
    "google_price_level": 1,
    "google_user_ratings_total": null,
    "created_at": "2025-06-08T05:15:37.559161",
    "updated_at": "2025-06-08T05:15:37.559161"
  },
  {
    "id": "3c39374d-7862-4003-9bf0-9b809308e394",
    "name": "Cascabel Mexican Patio",
    "street_address": "1000 S St Mary's St",
    "city": "San Antonio",
    "state": "TX",
    "zip": "78205",
    "latitude": 29.4145235,
    "longitude": -98.4888305,
    "phone": "(210) 212-6456",
    "website": "https://www.clover.com/online-ordering/cascabel-mexican-patio-san-antonio",
    "yelp_id": null,
    "google_rating": 4.3,
    "google_price_level": 1,
    "google_user_ratings_total": null,
    "created_at": "2025-06-08T05:15:30.272141",
    "updated_at": "2025-06-08T05:15:30.272141"
  },
  {
    "id": "434cab0d-da93-4dcd-9f38-26956e071b32",
    "name": "Los Weyes de la Asada",
    "street_address": "1009 Avenue B",
    "city": "San Antonio",
    "state": "TX",
    "zip": "78215",
    "latitude": 29.435432,
    "longitude": -98.481337,
    "phone": "",
    "website": "https://losweyesdelaasada.com/",
    "yelp_id": null,
    "google_rating": 4.8,
    "google_price_level": null,
    "google_user_ratings_total": null,
    "created_at": "2025-06-08T05:15:26.214251",
    "updated_at": "2025-06-08T05:15:26.214251"
  },
  {
    "id": "437629c8-f231-4366-945d-abb61f7d3b71",
    "name": "Taqueria Los Dos Laredos",
    "street_address": "1264 Austin Hwy",
    "city": "San Antonio",
    "state": "TX",
    "zip": "78209",
    "latitude": 29.489102,
    "longitude": -98.4428112,
    "phone": "(210) 822-3110",
    "website": "https://taquerialosdoslaredostx.com/",
    "yelp_id": null,
    "google_rating": 4.1,
    "google_price_level": 1,
    "google_user_ratings_total": null,
    "created_at": "2025-06-08T05:15:24.233793",
    "updated_at": "2025-06-08T05:15:24.233793"
  },
  {
    "id": "447d1227-a189-4d28-9e2b-32f3ef17ce05",
    "name": "Little Taco Factory",
    "street_address": "4706 Old Seguin Rd",
    "city": "San Antonio",
    "state": "TX",
    "zip": "78219",
    "latitude": 29.4626561,
    "longitude": -98.39917559999999,
    "phone": "(210) 661-7644",
    "website": "",
    "yelp_id": null,
    "google_rating": 4.2,
    "google_price_level": 1,
    "google_user_ratings_total": null,
    "created_at": "2025-06-08T05:15:48.234671",
    "updated_at": "2025-06-08T05:15:48.234671"
  },
  {
    "id": "47181b43-0657-4903-90cf-9a2382f36f49",
    "name": "Sarita's Mexican Restaurant - Medical Center",
    "street_address": "8224 Fredericksburg Rd",
    "city": "San Antonio",
    "state": "TX",
    "zip": "78229",
    "latitude": 29.5162371,
    "longitude": -98.5713458,
    "phone": "(210) 265-3723",
    "website": "http://www.saritastexmex.com/",
    "yelp_id": null,
    "google_rating": 4.2,
    "google_price_level": 2,
    "google_user_ratings_total": null,
    "created_at": "2025-06-08T05:16:00.893888",
    "updated_at": "2025-06-08T05:16:00.893888"
  },
  {
    "id": "4787ec33-ff1e-4c5b-88b0-cfbe3168d047",
    "name": "Taqueria El Gallo De Jalisco",
    "street_address": "3615 West Ave",
    "city": "San Antonio",
    "state": "TX",
    "zip": "78213",
    "latitude": 29.4961866,
    "longitude": -98.5265739,
    "phone": "(210) 342-4855",
    "website": "",
    "yelp_id": null,
    "google_rating": 4.1,
    "google_price_level": 1,
    "google_user_ratings_total": null,
    "created_at": "2025-06-08T05:15:39.494375",
    "updated_at": "2025-06-08T05:15:39.494375"
  },
  {
    "id": "48be6164-4daa-441c-9c9f-a5e417de4190",
    "name": "Teran's Cafe (Mexican Food Specialists)",
    "street_address": "4403 E Houston St",
    "city": "San Antonio",
    "state": "TX",
    "zip": "78220",
    "latitude": 29.4248072,
    "longitude": -98.40895549999999,
    "phone": "(210) 333-6470",
    "website": "",
    "yelp_id": null,
    "google_rating": 4.5,
    "google_price_level": 1,
    "google_user_ratings_total": null,
    "created_at": "2025-06-08T05:16:01.916686",
    "updated_at": "2025-06-08T05:16:01.916686"
  },
  {
    "id": "4e618704-4039-4bdf-ae7c-d59f0747b43f",
    "name": "Don Pedro Mexican Restaurant",
    "street_address": "1526 SW Military Dr",
    "city": "San Antonio",
    "state": "TX",
    "zip": "78221",
    "latitude": 29.35624809999999,
    "longitude": -98.5172893,
    "phone": "(210) 922-3511",
    "website": "https://www.donpedro.com/",
    "yelp_id": null,
    "google_rating": 4.3,
    "google_price_level": 2,
    "google_user_ratings_total": null,
    "created_at": "2025-06-08T05:15:56.866498",
    "updated_at": "2025-06-08T05:15:56.866498"
  },
  {
    "id": "500f06d3-45b1-48c4-9bab-057f7b41cc3b",
    "name": "El Molino Restaurant",
    "street_address": "1703 Interstate 35 North",
    "city": "1703 I-35 Frontage Rd",
    "state": "San",
    "zip": "Antonio",
    "latitude": 29.4391972,
    "longitude": -98.4700665,
    "phone": "(210) 399-1714",
    "website": "http://elmolino.restaurant/",
    "yelp_id": null,
    "google_rating": 4.4,
    "google_price_level": 1,
    "google_user_ratings_total": null,
    "created_at": "2025-06-08T05:15:59.836721",
    "updated_at": "2025-06-08T05:15:59.836721"
  },
  {
    "id": "50283d8b-2088-401f-b5bd-2ef8363c9b5c",
    "name": "El Chaparros Tacos & More",
    "street_address": "500 S General McMullen Dr",
    "city": "San Antonio",
    "state": "TX",
    "zip": "78237",
    "latitude": 29.4249831,
    "longitude": -98.55455219999999,
    "phone": "(210) 455-5337",
    "website": "",
    "yelp_id": null,
    "google_rating": 4.3,
    "google_price_level": 1,
    "google_user_ratings_total": null,
    "created_at": "2025-06-08T05:15:39.033035",
    "updated_at": "2025-06-08T05:15:39.033035"
  },
  {
    "id": "51efa192-28cc-43d6-9132-d3f181dffb5f",
    "name": "Olivia's Mexican Restaurant",
    "street_address": "801 Vanderbilt St",
    "city": "San Antonio",
    "state": "TX",
    "zip": "78210",
    "latitude": 29.3900902,
    "longitude": -98.461101,
    "phone": "(210) 534-3016",
    "website": "https://www.facebook.com/pages/biz/Olivias-Mexican-Restaurant-1423672764555238/",
    "yelp_id": null,
    "google_rating": 4.3,
    "google_price_level": 1,
    "google_user_ratings_total": null,
    "created_at": "2025-06-08T05:15:52.259194",
    "updated_at": "2025-06-08T05:15:52.259194"
  },
  {
    "id": "53efd21b-94f5-4b3d-976a-c84403fa56e7",
    "name": "Susana's Mexican Restaurant And Catering",
    "street_address": "2223 S Zarzamora St",
    "city": "San Antonio",
    "state": "TX",
    "zip": "78207",
    "latitude": 29.4009011,
    "longitude": -98.530676,
    "phone": "(210) 368-9340",
    "website": "https://www.facebook.com/Susanas-Mexican-Restaurant-736773016358237/",
    "yelp_id": null,
    "google_rating": 4.3,
    "google_price_level": 1,
    "google_user_ratings_total": null,
    "created_at": "2025-06-08T05:15:55.815066",
    "updated_at": "2025-06-08T05:15:55.815066"
  },
  {
    "id": "5653d9c3-29c9-4d50-9570-829986ece5f1",
    "name": "Los Chiles Mexican Restaurant",
    "street_address": "341 St Cloud",
    "city": "San Antonio",
    "state": "TX",
    "zip": "78228",
    "latitude": 29.4598623,
    "longitude": -98.550257,
    "phone": "(210) 233-6249",
    "website": "https://loschiles.top/",
    "yelp_id": null,
    "google_rating": 4.5,
    "google_price_level": 1,
    "google_user_ratings_total": null,
    "created_at": "2025-06-08T05:15:33.511392",
    "updated_at": "2025-06-08T05:15:33.511392"
  },
  {
    "id": "567559c4-e656-4f5f-9765-628aa25a0b01",
    "name": "Mama Margie's Mexican Restaurant",
    "street_address": "7335 S Zarzamora St",
    "city": "San Antonio",
    "state": "TX",
    "zip": "78224",
    "latitude": 29.3537461,
    "longitude": -98.5346065,
    "phone": "(210) 923-1600",
    "website": "https://www.mamamargies.com/our-menu/",
    "yelp_id": null,
    "google_rating": 4.1,
    "google_price_level": 1,
    "google_user_ratings_total": null,
    "created_at": "2025-06-08T05:15:49.501774",
    "updated_at": "2025-06-08T05:15:49.501774"
  },
  {
    "id": "57420b46-e9b1-43f6-b880-04265fa1d606",
    "name": "Tia's Taco Hut",
    "street_address": "8514 Interstate 35 Access Rd",
    "city": "San Antonio",
    "state": "TX",
    "zip": "78211",
    "latitude": 29.339529,
    "longitude": -98.5533523,
    "phone": "(210) 267-1265",
    "website": "http://www.tiastacohuttx.com/",
    "yelp_id": null,
    "google_rating": 4.2,
    "google_price_level": 1,
    "google_user_ratings_total": null,
    "created_at": "2025-06-08T05:15:44.274238",
    "updated_at": "2025-06-08T05:15:44.274238"
  },
  {
    "id": "57e6f83d-3a25-4688-9393-38f6cdbc02df",
    "name": "Reyna's Taqueria",
    "street_address": "4722 S Hackberry St",
    "city": "San Antonio",
    "state": "TX",
    "zip": "78223",
    "latitude": 29.3759906,
    "longitude": -98.47307889999999,
    "phone": "(210) 532-8226",
    "website": "http://reynas-taqueria.edan.io/",
    "yelp_id": null,
    "google_rating": 4.0,
    "google_price_level": 1,
    "google_user_ratings_total": null,
    "created_at": "2025-06-08T05:15:53.297883",
    "updated_at": "2025-06-08T05:15:53.297883"
  },
  {
    "id": "58a3f05a-88b4-45e1-bc6c-c0806b3d3afd",
    "name": "Taqueria Vallarta",
    "street_address": "3219 Blanco Rd",
    "city": "San Antonio",
    "state": "TX",
    "zip": "78212",
    "latitude": 29.4766277,
    "longitude": -98.50818249999999,
    "phone": "(210) 737-0797",
    "website": "https://taqueriavallarta.shop/",
    "yelp_id": null,
    "google_rating": 4.1,
    "google_price_level": 2,
    "google_user_ratings_total": null,
    "created_at": "2025-06-08T05:15:38.294722",
    "updated_at": "2025-06-08T05:15:38.294722"
  },
  {
    "id": "5a1a7d74-04d1-4027-b6b8-082ac65c4094",
    "name": "Tacos de Mama",
    "street_address": "3709 Blanco Rd",
    "city": "San Antonio",
    "state": "TX",
    "zip": "78212",
    "latitude": 29.4809961,
    "longitude": -98.5080079,
    "phone": "(726) 205-9131",
    "website": "",
    "yelp_id": null,
    "google_rating": 4.6,
    "google_price_level": null,
    "google_user_ratings_total": null,
    "created_at": "2025-06-08T05:15:41.555033",
    "updated_at": "2025-06-08T05:15:41.555033"
  },
  {
    "id": "5b8b6bad-e75d-41e0-b19e-a6e0cb7800ba",
    "name": "TLAHCO MEXICAN KITCHEN",
    "street_address": "6702 San Pedro Ave",
    "city": "San Antonio",
    "state": "TX",
    "zip": "78216",
    "latitude": 29.5005879,
    "longitude": -98.49886769999999,
    "phone": "(210) 239-9457",
    "website": "http://www.tlahcokitchen.com/",
    "yelp_id": null,
    "google_rating": 4.4,
    "google_price_level": 1,
    "google_user_ratings_total": null,
    "created_at": "2025-06-08T05:15:35.020814",
    "updated_at": "2025-06-08T05:15:35.020814"
  },
  {
    "id": "5e4f4416-64de-41b3-bdca-d954c7ce5745",
    "name": "Taco Cabana",
    "street_address": "3310 San Pedro Ave",
    "city": "San Antonio",
    "state": "TX",
    "zip": "78212",
    "latitude": 29.4662234,
    "longitude": -98.4990655,
    "phone": "(210) 733-9332",
    "website": "https://www.tacocabana.com/?utm_source=google-business-profile&utm_medium=organic&utm_campaign=business-listing&utm_id=20101",
    "yelp_id": null,
    "google_rating": 3.9,
    "google_price_level": 1,
    "google_user_ratings_total": null,
    "created_at": "2025-06-08T05:15:43.567759",
    "updated_at": "2025-06-08T05:15:43.567759"
  },
  {
    "id": "5ef62460-b082-4e17-8295-7ea9363fe1b0",
    "name": "La PanaderÃ­a Bakery CafÃ©",
    "street_address": "301 E Houston St",
    "city": "San Antonio",
    "state": "TX",
    "zip": "78205",
    "latitude": 29.42658179999999,
    "longitude": -98.4895669,
    "phone": "(210) 592-6264",
    "website": "http://www.lapanaderia.com/",
    "yelp_id": null,
    "google_rating": 4.7,
    "google_price_level": 2,
    "google_user_ratings_total": null,
    "created_at": "2025-06-08T05:15:52.011052",
    "updated_at": "2025-06-08T05:15:52.011052"
  },
  {
    "id": "5f630f54-a792-46b6-bdce-cde837d8b591",
    "name": "Taco Cabana",
    "street_address": "543 W Malone Ave",
    "city": "San Antonio",
    "state": "TX",
    "zip": "78214",
    "latitude": 29.3876847,
    "longitude": -98.5112699,
    "phone": "(210) 534-8533",
    "website": "https://www.tacocabana.com/?utm_source=google-business-profile&utm_medium=organic&utm_campaign=business-listing&utm_id=20212",
    "yelp_id": null,
    "google_rating": 3.7,
    "google_price_level": 1,
    "google_user_ratings_total": null,
    "created_at": "2025-06-08T05:15:48.739309",
    "updated_at": "2025-06-08T05:15:48.739309"
  },
  {
    "id": "5ff98dd1-d39f-4150-8a1c-1843072ed88b",
    "name": "Taqueria Los Dos Laredos",
    "street_address": "1303 S Hackberry St",
    "city": "San Antonio",
    "state": "TX",
    "zip": "78210",
    "latitude": 29.4045458,
    "longitude": -98.47344869999999,
    "phone": "(210) 534-2494",
    "website": "https://taquerialosdoslaredos.shop/",
    "yelp_id": null,
    "google_rating": 4.0,
    "google_price_level": 1,
    "google_user_ratings_total": null,
    "created_at": "2025-06-08T05:15:23.972858",
    "updated_at": "2025-06-08T05:15:23.972858"
  },
  {
    "id": "60690628-d014-4f5f-9d5b-65a9b4aa2cf2",
    "name": "Taqueria Chapala Jalisco",
    "street_address": "1902 McCullough Ave",
    "city": "San Antonio",
    "state": "TX",
    "zip": "78212",
    "latitude": 29.4473178,
    "longitude": -98.4916616,
    "phone": "(210) 735-5352",
    "website": "https://taqueriachapala.top/",
    "yelp_id": null,
    "google_rating": 4.3,
    "google_price_level": 1,
    "google_user_ratings_total": null,
    "created_at": "2025-06-08T05:15:29.524720",
    "updated_at": "2025-06-08T05:15:29.524720"
  },
  {
    "id": "60769d1a-e5b2-4335-82d8-b6e37a9a3ece",
    "name": "Taqueria Huentitan Jalisco LLC",
    "street_address": "2318 Fredericksburg Rd",
    "city": "San Antonio",
    "state": "TX",
    "zip": "78201",
    "latitude": 29.4670366,
    "longitude": -98.528396,
    "phone": "(210) 731-8305",
    "website": "https://taqueriahjaliscotx.com/",
    "yelp_id": null,
    "google_rating": 4.4,
    "google_price_level": 1,
    "google_user_ratings_total": null,
    "created_at": "2025-06-08T05:15:58.661041",
    "updated_at": "2025-06-08T05:15:58.661041"
  },
  {
    "id": "6a7b9552-a961-435e-8d08-f755f3feefc3",
    "name": "La Mexicana Mexican Restaurant",
    "street_address": "130 Main Plaza",
    "city": "San Antonio",
    "state": "TX",
    "zip": "78205",
    "latitude": 29.4239975,
    "longitude": -98.49311569999999,
    "phone": "(210) 265-3422",
    "website": "http://lamexicanarestaurant.online/",
    "yelp_id": null,
    "google_rating": 3.8,
    "google_price_level": 1,
    "google_user_ratings_total": null,
    "created_at": "2025-06-08T05:15:31.019725",
    "updated_at": "2025-06-08T05:15:31.019725"
  },
  {
    "id": "6ba491de-180f-4f1f-a0db-552a221d0811",
    "name": "El Sol Mexican Restaurant",
    "street_address": "1815 Pleasanton Rd",
    "city": "San Antonio",
    "state": "TX",
    "zip": "78221",
    "latitude": 29.3637019,
    "longitude": -98.5042447,
    "phone": "(210) 923-5553",
    "website": "https://elsolmexicanrestaurant.cfd/",
    "yelp_id": null,
    "google_rating": 4.2,
    "google_price_level": 1,
    "google_user_ratings_total": null,
    "created_at": "2025-06-08T05:15:33.776619",
    "updated_at": "2025-06-08T05:15:33.776619"
  },
  {
    "id": "6c4187e2-3814-47ad-9df8-40f74660456a",
    "name": "Tacos El Regio - St Maryâ€™s",
    "street_address": "2726 N St Mary's St",
    "city": "San Antonio",
    "state": "TX",
    "zip": "78212",
    "latitude": 29.4508395,
    "longitude": -98.4863396,
    "phone": "(210) 782-2272",
    "website": "https://www.tacoselregiosatx.com/",
    "yelp_id": null,
    "google_rating": 4.2,
    "google_price_level": 1,
    "google_user_ratings_total": null,
    "created_at": "2025-06-08T05:15:26.676434",
    "updated_at": "2025-06-08T05:15:26.676434"
  },
  {
    "id": "6c7b7fb5-3a8d-4951-b176-18140e4c7fcd",
    "name": "SofÃ­aâ€™s tacos house/ taco Amandaâ€™s",
    "street_address": "1759 Palo Alto Rd",
    "city": "San Antonio",
    "state": "TX",
    "zip": "78211",
    "latitude": 29.3327724,
    "longitude": -98.552599,
    "phone": "(210) 924-1555",
    "website": "https://sofias.top/",
    "yelp_id": null,
    "google_rating": 4.4,
    "google_price_level": 1,
    "google_user_ratings_total": null,
    "created_at": "2025-06-08T05:15:45.776709",
    "updated_at": "2025-06-08T05:15:45.776709"
  },
  {
    "id": "6e5d1e46-e167-48fb-94f2-1458946e794e",
    "name": "Puro Taco",
    "street_address": "2334 N St Mary's St",
    "city": "San Antonio",
    "state": "TX",
    "zip": "78212",
    "latitude": 29.4482391,
    "longitude": -98.4875371,
    "phone": "(210) 320-0277",
    "website": "",
    "yelp_id": null,
    "google_rating": 4.2,
    "google_price_level": null,
    "google_user_ratings_total": null,
    "created_at": "2025-06-08T05:15:51.783090",
    "updated_at": "2025-06-08T05:15:51.783090"
  },
  {
    "id": "6ebcbf5d-ced3-4366-b170-a1c59718f35a",
    "name": "Taco Cabana",
    "street_address": "4723 W Commerce St",
    "city": "San Antonio",
    "state": "TX",
    "zip": "78237",
    "latitude": 29.43128189999999,
    "longitude": -98.55610910000001,
    "phone": "(210) 436-4464",
    "website": "https://www.tacocabana.com/?utm_source=google-business-profile&utm_medium=organic&utm_campaign=business-listing&utm_id=20207",
    "yelp_id": null,
    "google_rating": 3.6,
    "google_price_level": 1,
    "google_user_ratings_total": null,
    "created_at": "2025-06-08T05:15:57.611676",
    "updated_at": "2025-06-08T05:15:57.611676"
  },
  {
    "id": "7101a361-fe71-4b62-9294-645eca4c11ba",
    "name": "Lupe Tortilla Mexican Restaurant",
    "street_address": "255 E Basse Rd",
    "city": "San Antonio",
    "state": "TX",
    "zip": "78209",
    "latitude": 29.4969848,
    "longitude": -98.4797006,
    "phone": "(210) 446-4081",
    "website": "https://tex-mex.com/sanantonio-quarry/",
    "yelp_id": null,
    "google_rating": 4.1,
    "google_price_level": 2,
    "google_user_ratings_total": null,
    "created_at": "2025-06-08T05:15:36.587904",
    "updated_at": "2025-06-08T05:15:36.587904"
  },
  {
    "id": "715b37f9-9801-4c90-a344-673b0d1c3f92",
    "name": "Tejas Birria- El Camino",
    "street_address": "1009 Avenue B",
    "city": "San Antonio",
    "state": "TX",
    "zip": "78215",
    "latitude": 29.4353273,
    "longitude": -98.4814122,
    "phone": "",
    "website": "https://tejasbirria.toast.site/",
    "yelp_id": null,
    "google_rating": 4.8,
    "google_price_level": 1,
    "google_user_ratings_total": null,
    "created_at": "2025-06-08T05:15:50.002829",
    "updated_at": "2025-06-08T05:15:50.002829"
  },
  {
    "id": "72138b01-3e40-44c7-8d63-78e6aadab1e8",
    "name": "Tia's Taco Hut",
    "street_address": "5423 Evers Rd",
    "city": "San Antonio",
    "state": "TX",
    "zip": "78238",
    "latitude": 29.4860941,
    "longitude": -98.5938568,
    "phone": "(210) 314-4504",
    "website": "https://www.tiastacohuttx.com/",
    "yelp_id": null,
    "google_rating": 3.6,
    "google_price_level": 1,
    "google_user_ratings_total": null,
    "created_at": "2025-06-08T05:15:45.010392",
    "updated_at": "2025-06-08T05:15:45.010392"
  },
  {
    "id": "723e4225-c480-4c83-9162-f1a040b1b02d",
    "name": "Taco Cabana",
    "street_address": "2908 Broadway",
    "city": "San Antonio",
    "state": "TX",
    "zip": "78209",
    "latitude": 29.4536895,
    "longitude": -98.471589,
    "phone": "(210) 829-1616",
    "website": "https://www.tacocabana.com/?utm_source=google-business-profile&utm_medium=organic&utm_campaign=business-listing&utm_id=20208",
    "yelp_id": null,
    "google_rating": 3.8,
    "google_price_level": 1,
    "google_user_ratings_total": null,
    "created_at": "2025-06-08T05:15:43.319364",
    "updated_at": "2025-06-08T05:15:43.319364"
  },
  {
    "id": "7377d675-550e-451d-9bd1-a2852f854579",
    "name": "Eva's Mexican Restaurant",
    "street_address": "5103 W Commerce St",
    "city": "San Antonio",
    "state": "TX",
    "zip": "78237",
    "latitude": 29.4317054,
    "longitude": -98.5608218,
    "phone": "(210) 432-0201",
    "website": "",
    "yelp_id": null,
    "google_rating": 4.4,
    "google_price_level": null,
    "google_user_ratings_total": null,
    "created_at": "2025-06-08T05:15:54.058192",
    "updated_at": "2025-06-08T05:15:54.058192"
  },
  {
    "id": "74145ac3-24f2-47da-b731-13790fcba2bb",
    "name": "Jalisco Taqueria #4",
    "street_address": "3119 S Gevers St",
    "city": "San Antonio",
    "state": "TX",
    "zip": "78210",
    "latitude": 29.388314,
    "longitude": -98.45704900000001,
    "phone": "(210) 532-3049",
    "website": "",
    "yelp_id": null,
    "google_rating": 4.2,
    "google_price_level": 1,
    "google_user_ratings_total": null,
    "created_at": "2025-06-08T05:15:53.548113",
    "updated_at": "2025-06-08T05:15:53.548113"
  },
  {
    "id": "74ebb9fa-42b1-4942-abb8-8fd059e3c76f",
    "name": "Taqueria Anahuac",
    "street_address": "3735 SW Military Dr",
    "city": "San Antonio",
    "state": "TX",
    "zip": "78211",
    "latitude": 29.3590384,
    "longitude": -98.56328359999999,
    "phone": "(210) 921-0774",
    "website": "https://anahuac.top/",
    "yelp_id": null,
    "google_rating": 4.2,
    "google_price_level": 1,
    "google_user_ratings_total": null,
    "created_at": "2025-06-08T05:15:58.109899",
    "updated_at": "2025-06-08T05:15:58.109899"
  },
  {
    "id": "760df752-a42b-49ef-b946-3bd6442b492e",
    "name": "Guerreroâ€™s Mexican Restaurant",
    "street_address": "3701 Nogalitos St",
    "city": "San Antonio",
    "state": "TX",
    "zip": "78211",
    "latitude": 29.3790299,
    "longitude": -98.53084989999999,
    "phone": "(210) 314-2284",
    "website": "",
    "yelp_id": null,
    "google_rating": 4.4,
    "google_price_level": 1,
    "google_user_ratings_total": null,
    "created_at": "2025-06-08T05:15:54.807682",
    "updated_at": "2025-06-08T05:15:54.807682"
  },
  {
    "id": "77d79d03-6abc-4600-8392-bee2d20b1d76",
    "name": "La Coronela Mexican Restaurant",
    "street_address": "201 N New Braunfels Ave",
    "city": "San Antonio",
    "state": "TX",
    "zip": "78202",
    "latitude": 29.4212869,
    "longitude": -98.46153919999999,
    "phone": "(210) 598-0537",
    "website": "",
    "yelp_id": null,
    "google_rating": 4.3,
    "google_price_level": 1,
    "google_user_ratings_total": null,
    "created_at": "2025-06-08T05:15:23.699514",
    "updated_at": "2025-06-08T05:15:23.699514"
  },
  {
    "id": "790eeae8-59ef-48d6-a91f-f24d8fc88061",
    "name": "El Taco Huevon",
    "street_address": "2620 S Presa St Suite #2",
    "city": "San Antonio",
    "state": "TX",
    "zip": "78210",
    "latitude": 29.3956097,
    "longitude": -98.4812285,
    "phone": "(210) 607-3002",
    "website": "",
    "yelp_id": null,
    "google_rating": 4.7,
    "google_price_level": 2,
    "google_user_ratings_total": null,
    "created_at": "2025-06-08T05:15:26.443758",
    "updated_at": "2025-06-08T05:15:26.443758"
  },
  {
    "id": "7b5c5d31-814a-4ea6-8a77-bd079ae8df55",
    "name": "Taco Capital",
    "street_address": "2026 Babcock Rd suite 103",
    "city": "San Antonio",
    "state": "TX",
    "zip": "78229",
    "latitude": 29.50053729999999,
    "longitude": -98.57955969999999,
    "phone": "(210) 314-1269",
    "website": "http://tacocptl.com/",
    "yelp_id": null,
    "google_rating": 4.9,
    "google_price_level": 1,
    "google_user_ratings_total": null,
    "created_at": "2025-06-08T05:15:53.812421",
    "updated_at": "2025-06-08T05:15:53.812421"
  },
  {
    "id": "7c333b4c-629c-4c23-ad3e-45cf8e8fc455",
    "name": "Taco La Gardenia",
    "street_address": "1805 N Pine St",
    "city": "San Antonio",
    "state": "TX",
    "zip": "78208",
    "latitude": 29.441719,
    "longitude": -98.470396,
    "phone": "(210) 229-9702",
    "website": "",
    "yelp_id": null,
    "google_rating": 4.5,
    "google_price_level": 1,
    "google_user_ratings_total": null,
    "created_at": "2025-06-08T05:15:28.757929",
    "updated_at": "2025-06-08T05:15:28.757929"
  },
  {
    "id": "7de44c27-385f-42c1-b018-049aecf57a30",
    "name": "Velvet Taco",
    "street_address": "103 W Grayson St",
    "city": "San Antonio",
    "state": "TX",
    "zip": "78212",
    "latitude": 29.4449,
    "longitude": -98.48178999999999,
    "phone": "(210) 960-5650",
    "website": "https://www.velvettaco.com/location/the-pearl/",
    "yelp_id": null,
    "google_rating": 4.6,
    "google_price_level": 2,
    "google_user_ratings_total": null,
    "created_at": "2025-06-08T05:15:31.780360",
    "updated_at": "2025-06-08T05:15:31.780360"
  },
  {
    "id": "7e5456f2-5133-4ff7-b7f5-406b00fdb442",
    "name": "El Canelo #7 Mexican Grill",
    "street_address": "3546 Culebra Rd",
    "city": "San Antonio",
    "state": "TX",
    "zip": "78228",
    "latitude": 29.449201,
    "longitude": -98.5703677,
    "phone": "(210) 277-0306",
    "website": "",
    "yelp_id": null,
    "google_rating": 3.5,
    "google_price_level": 1,
    "google_user_ratings_total": null,
    "created_at": "2025-06-08T05:15:40.230785",
    "updated_at": "2025-06-08T05:15:40.230785"
  },
  {
    "id": "7e8b2244-b5e8-4c03-a86e-0995569e1ed2",
    "name": "Taqueria La Tapatia",
    "street_address": "2320 Babcock Rd",
    "city": "San Antonio",
    "state": "TX",
    "zip": "78229",
    "latitude": 29.504712,
    "longitude": -98.585183,
    "phone": "(210) 442-8013",
    "website": "",
    "yelp_id": null,
    "google_rating": 4.1,
    "google_price_level": 1,
    "google_user_ratings_total": null,
    "created_at": "2025-06-08T05:15:38.046547",
    "updated_at": "2025-06-08T05:15:38.046547"
  },
  {
    "id": "7f2b5073-8db4-46ba-9ca8-08f333020b22",
    "name": "Taco Palenque Zarzamora",
    "street_address": "7839 Interstate 35 Access Rd",
    "city": "San Antonio",
    "state": "TX",
    "zip": "78224",
    "latitude": 29.3516166,
    "longitude": -98.536192,
    "phone": "(210) 971-6977",
    "website": "https://tacopalenque.com/",
    "yelp_id": null,
    "google_rating": 4.3,
    "google_price_level": 2,
    "google_user_ratings_total": null,
    "created_at": "2025-06-08T05:15:49.254769",
    "updated_at": "2025-06-08T05:15:49.254769"
  },
  {
    "id": "7f7d697f-ea33-4c0a-8210-ee3393f0b8e2",
    "name": "The Original Blanco Cafe",
    "street_address": "201 W Commerce St",
    "city": "San Antonio",
    "state": "TX",
    "zip": "78205",
    "latitude": 29.4253113,
    "longitude": -98.49495119999999,
    "phone": "(210) 271-3300",
    "website": "http://www.theoriginalblancocafe.com/",
    "yelp_id": null,
    "google_rating": 4.3,
    "google_price_level": 1,
    "google_user_ratings_total": null,
    "created_at": "2025-06-08T05:16:00.236774",
    "updated_at": "2025-06-08T05:16:00.236774"
  },
  {
    "id": "7f990f77-fb36-4a75-8fee-82c3bc70353b",
    "name": "Taqueria Hacienda Mexican Restaurant",
    "street_address": "4535 Rigsby Ave #101",
    "city": "San Antonio",
    "state": "TX",
    "zip": "78222",
    "latitude": 29.3987104,
    "longitude": -98.4030688,
    "phone": "(210) 277-0125",
    "website": "",
    "yelp_id": null,
    "google_rating": 3.9,
    "google_price_level": 1,
    "google_user_ratings_total": null,
    "created_at": "2025-06-08T05:15:34.262343",
    "updated_at": "2025-06-08T05:15:34.262343"
  },
  {
    "id": "7fcf694e-959c-4d4e-b68a-a04e6e64b5d4",
    "name": "Taquitos .MB El Sazon Norteno",
    "street_address": "2410 N St Mary's St",
    "city": "San Antonio",
    "state": "TX",
    "zip": "78212",
    "latitude": 29.448603,
    "longitude": -98.4876396,
    "phone": "(210) 980-5766",
    "website": "",
    "yelp_id": null,
    "google_rating": 4.2,
    "google_price_level": 1,
    "google_user_ratings_total": null,
    "created_at": "2025-06-08T05:15:41.287734",
    "updated_at": "2025-06-08T05:15:41.287734"
  },
  {
    "id": "7ff25050-992e-4f35-b0f9-125c369fb8b4",
    "name": "Benny's Tacos",
    "street_address": "5050 Walzem Rd",
    "city": "San Antonio",
    "state": "TX",
    "zip": "78218",
    "latitude": 29.5099447,
    "longitude": -98.3915274,
    "phone": "(210) 655-8646",
    "website": "",
    "yelp_id": null,
    "google_rating": 4.1,
    "google_price_level": 1,
    "google_user_ratings_total": null,
    "created_at": "2025-06-08T05:15:42.815958",
    "updated_at": "2025-06-08T05:15:42.815958"
  },
  {
    "id": "83a4a4df-9b33-46a6-bf2c-f6eeae8bb098",
    "name": "Taqueria El Trompos",
    "street_address": "7863 Callaghan Rd Suite 108",
    "city": "San Antonio",
    "state": "TX",
    "zip": "78229",
    "latitude": 29.5096549,
    "longitude": -98.5549435,
    "phone": "(210) 626-8032",
    "website": "https://www.ordertaqueriaeltrompo.com/",
    "yelp_id": null,
    "google_rating": 4.3,
    "google_price_level": 1,
    "google_user_ratings_total": null,
    "created_at": "2025-06-08T05:15:32.778589",
    "updated_at": "2025-06-08T05:15:32.778589"
  },
  {
    "id": "84cc9bef-2ceb-48c4-ab3d-89618ad917cc",
    "name": "Las Delicias Tacos #1",
    "street_address": "1603 W Commerce St #100",
    "city": "San Antonio",
    "state": "TX",
    "zip": "78207",
    "latitude": 29.427098,
    "longitude": -98.512389,
    "phone": "(210) 226-4111",
    "website": "",
    "yelp_id": null,
    "google_rating": 4.4,
    "google_price_level": 1,
    "google_user_ratings_total": null,
    "created_at": "2025-06-08T05:15:24.747807",
    "updated_at": "2025-06-08T05:15:24.747807"
  },
  {
    "id": "8717eee4-fcd9-4341-8e6f-dcf20d728f0d",
    "name": "Mi Parrillada Mexican Food",
    "street_address": "5906 S Flores St",
    "city": "San Antonio",
    "state": "TX",
    "zip": "78214",
    "latitude": 29.3662457,
    "longitude": -98.49473479999999,
    "phone": "(210) 922-1858",
    "website": "https://parrillada.top/",
    "yelp_id": null,
    "google_rating": 4.2,
    "google_price_level": 1,
    "google_user_ratings_total": null,
    "created_at": "2025-06-08T05:15:31.517360",
    "updated_at": "2025-06-08T05:15:31.517360"
  },
  {
    "id": "899e5afa-0f8c-470f-a70c-4052b86a94db",
    "name": "Rocky's Taco House",
    "street_address": "1302 Cupples Rd #8",
    "city": "San Antonio",
    "state": "TX",
    "zip": "78226",
    "latitude": 29.3949974,
    "longitude": -98.54935619999999,
    "phone": "(210) 433-2931",
    "website": "http://www.rockystacohouse.com/",
    "yelp_id": null,
    "google_rating": 3.8,
    "google_price_level": 1,
    "google_user_ratings_total": null,
    "created_at": "2025-06-08T05:15:41.785209",
    "updated_at": "2025-06-08T05:15:41.785209"
  },
  {
    "id": "8b00cd30-bc04-4ab9-b441-342f2a6b2044",
    "name": "777 Mini Tacos & Birria 1",
    "street_address": "3643 SW Military Dr",
    "city": "San Antonio",
    "state": "TX",
    "zip": "78211",
    "latitude": 29.358988,
    "longitude": -98.56147899999999,
    "phone": "(210) 739-2574",
    "website": "https://apporder777minitacos.com/",
    "yelp_id": null,
    "google_rating": 4.6,
    "google_price_level": 1,
    "google_user_ratings_total": null,
    "created_at": "2025-06-08T05:15:44.522820",
    "updated_at": "2025-06-08T05:15:44.522820"
  },
  {
    "id": "8eed485b-f11f-4eff-8ef0-9407d5afaa0c",
    "name": "Las Palomas Mexican Restaurant",
    "street_address": "3950 S Zarzamora St",
    "city": "San Antonio",
    "state": "TX",
    "zip": "78225",
    "latitude": 29.3852702,
    "longitude": -98.5328561,
    "phone": "(210) 757-3426",
    "website": "",
    "yelp_id": null,
    "google_rating": 4.7,
    "google_price_level": null,
    "google_user_ratings_total": null,
    "created_at": "2025-06-08T05:15:27.235492",
    "updated_at": "2025-06-08T05:15:27.235492"
  },
  {
    "id": "8f268cba-5c49-4e2e-b280-122fafb59dad",
    "name": "Little Taco Factory",
    "street_address": "1510 McCullough Ave",
    "city": "San Antonio",
    "state": "TX",
    "zip": "78212",
    "latitude": 29.4431691,
    "longitude": -98.4916521,
    "phone": "(210) 227-5657",
    "website": "https://www.facebook.com/The-Little-Taco-Factory-Mexican-Restaurant-117834104910145/",
    "yelp_id": null,
    "google_rating": 4.5,
    "google_price_level": 1,
    "google_user_ratings_total": null,
    "created_at": "2025-06-08T05:15:47.494471",
    "updated_at": "2025-06-08T05:15:47.494471"
  },
  {
    "id": "8f636ea4-bd97-452d-a05c-2b9411356fd1",
    "name": "Sukie's Taco House",
    "street_address": "1808 West Ave",
    "city": "San Antonio",
    "state": "TX",
    "zip": "78201",
    "latitude": 29.4779396,
    "longitude": -98.5258865,
    "phone": "(210) 732-0230",
    "website": "https://www.sukiestacohouse.com/",
    "yelp_id": null,
    "google_rating": 4.6,
    "google_price_level": 1,
    "google_user_ratings_total": null,
    "created_at": "2025-06-08T05:15:44.027280",
    "updated_at": "2025-06-08T05:15:44.027280"
  },
  {
    "id": "8fd1b219-2f80-4ed9-b2db-ad179bbd47de",
    "name": "Taco Palenque San Pedro & Cypress",
    "street_address": "811 San Pedro Ave",
    "city": "San Antonio",
    "state": "TX",
    "zip": "78212",
    "latitude": 29.4411418,
    "longitude": -98.4994894,
    "phone": "(210) 239-2339",
    "website": "",
    "yelp_id": null,
    "google_rating": 4.2,
    "google_price_level": 2,
    "google_user_ratings_total": null,
    "created_at": "2025-06-08T05:15:42.548899",
    "updated_at": "2025-06-08T05:15:42.548899"
  },
  {
    "id": "908264d0-f041-440e-b48e-009ac8a426a4",
    "name": "Taqueria La Tapatia # 8",
    "street_address": "3555 Fredericksburg Rd",
    "city": "San Antonio",
    "state": "TX",
    "zip": "78201",
    "latitude": 29.4770336,
    "longitude": -98.5392727,
    "phone": "(210) 732-2000",
    "website": "",
    "yelp_id": null,
    "google_rating": 3.7,
    "google_price_level": 2,
    "google_user_ratings_total": null,
    "created_at": "2025-06-08T05:15:28.019890",
    "updated_at": "2025-06-08T05:15:28.019890"
  },
  {
    "id": "9091a05b-e633-413d-bd29-236975388b25",
    "name": "Taqueria Guadalajara",
    "street_address": "2702 Roosevelt Ave",
    "city": "San Antonio",
    "state": "TX",
    "zip": "78214",
    "latitude": 29.3742515,
    "longitude": -98.4809994,
    "phone": "(210) 532-5500",
    "website": "http://ordertaqueriaguadalajarasanantonio.mobile-webview8.com/",
    "yelp_id": null,
    "google_rating": 4.2,
    "google_price_level": 1,
    "google_user_ratings_total": null,
    "created_at": "2025-06-08T05:15:39.260252",
    "updated_at": "2025-06-08T05:15:39.260252"
  },
  {
    "id": "9251a552-c155-4873-8c93-da0a9310ddef",
    "name": "Panchito's Mexican Restaurant",
    "street_address": "1705 S Zarzamora St",
    "city": "San Antonio",
    "state": "TX",
    "zip": "78207",
    "latitude": 29.408807,
    "longitude": -98.5296707,
    "phone": "(210) 226-9998",
    "website": "https://www.panchitos.net/",
    "yelp_id": null,
    "google_rating": 4.4,
    "google_price_level": 1,
    "google_user_ratings_total": null,
    "created_at": "2025-06-08T05:16:02.243703",
    "updated_at": "2025-06-08T05:16:02.243703"
  },
  {
    "id": "92eeb405-2709-4e96-91e5-c43cd99210a7",
    "name": "Tacos Los Hermanos",
    "street_address": "111 W Crockett St",
    "city": "San Antonio",
    "state": "TX",
    "zip": "78205",
    "latitude": 29.4252245,
    "longitude": -98.4888831,
    "phone": "(210) 510-8502",
    "website": "http://www.tacosloshermanostx17.com/",
    "yelp_id": null,
    "google_rating": 3.4,
    "google_price_level": null,
    "google_user_ratings_total": null,
    "created_at": "2025-06-08T05:15:33.255161",
    "updated_at": "2025-06-08T05:15:33.255161"
  },
  {
    "id": "966b74b8-3003-49e3-a97d-9cd2f7bc7a26",
    "name": "Mi CorazÃ³n Street Tacos",
    "street_address": "409 E Commerce St",
    "city": "San Antonio",
    "state": "TX",
    "zip": "78205",
    "latitude": 29.4244105,
    "longitude": -98.488478,
    "phone": "(210) 962-5700",
    "website": "https://mi-corazn-street-tacos.square.site/",
    "yelp_id": null,
    "google_rating": 4.5,
    "google_price_level": 2,
    "google_user_ratings_total": null,
    "created_at": "2025-06-08T05:15:42.021954",
    "updated_at": "2025-06-08T05:15:42.021954"
  },
  {
    "id": "978a9098-1985-498f-a437-f2ae9162eeee",
    "name": "Blue Moon Mexican Restaurant",
    "street_address": "3228 S Flores St",
    "city": "San Antonio",
    "state": "TX",
    "zip": "78204",
    "latitude": 29.39142,
    "longitude": -98.5037306,
    "phone": "(210) 531-0093",
    "website": "https://www.toasttab.com/local/order/bluemoontexmex/r-9eff2898-4f42-4618-af96-6daea37038e6/item-torta-jamon_985ce90a-9756-4208-bca7-a3afcd7143e1",
    "yelp_id": null,
    "google_rating": 4.4,
    "google_price_level": 1,
    "google_user_ratings_total": null,
    "created_at": "2025-06-08T05:15:56.605936",
    "updated_at": "2025-06-08T05:15:56.605936"
  },
  {
    "id": "98ec62c2-23d7-4fd6-b216-b866152f3a7e",
    "name": "Taco House",
    "street_address": "6307 San Pedro Ave",
    "city": "San Antonio",
    "state": "TX",
    "zip": "78216",
    "latitude": 29.4946862,
    "longitude": -98.4995778,
    "phone": "(210) 341-3136",
    "website": "https://www.instagram.com/tacohousesa/",
    "yelp_id": null,
    "google_rating": 4.4,
    "google_price_level": 1,
    "google_user_ratings_total": null,
    "created_at": "2025-06-08T05:15:46.753242",
    "updated_at": "2025-06-08T05:15:46.753242"
  },
  {
    "id": "9cfa7e4f-0921-4dbc-a34d-db6b0872b00d",
    "name": "la luna azul mexican restaurant",
    "street_address": "2433 Austin Hwy",
    "city": "San Antonio",
    "state": "TX",
    "zip": "78218",
    "latitude": 29.5100862,
    "longitude": -98.4085318,
    "phone": "(210) 776-7977",
    "website": "",
    "yelp_id": null,
    "google_rating": 4.6,
    "google_price_level": 1,
    "google_user_ratings_total": null,
    "created_at": "2025-06-08T05:15:29.793569",
    "updated_at": "2025-06-08T05:15:29.793569"
  },
  {
    "id": "9f6432eb-cc15-4565-aced-9e5f6bd5de4c",
    "name": "Taqueria Puro Jalisco",
    "street_address": "3663 Fredericksburg Rd",
    "city": "San Antonio",
    "state": "TX",
    "zip": "78201",
    "latitude": 29.4793465,
    "longitude": -98.5413561,
    "phone": "(210) 734-7957",
    "website": "",
    "yelp_id": null,
    "google_rating": 4.2,
    "google_price_level": 1,
    "google_user_ratings_total": null,
    "created_at": "2025-06-08T05:15:59.186704",
    "updated_at": "2025-06-08T05:15:59.186704"
  },
  {
    "id": "9f6ed9eb-6cb7-4032-94c2-0ccb4d696381",
    "name": "tonys tacos to go #2",
    "street_address": "1402 Castroville Rd",
    "city": "San Antonio",
    "state": "TX",
    "zip": "78237",
    "latitude": 29.4148904,
    "longitude": -98.5601037,
    "phone": "(210) 549-4868",
    "website": "",
    "yelp_id": null,
    "google_rating": 4.3,
    "google_price_level": 1,
    "google_user_ratings_total": null,
    "created_at": "2025-06-08T05:15:59.520805",
    "updated_at": "2025-06-08T05:15:59.520805"
  },
  {
    "id": "9fb79769-4f62-45d6-87be-09f199092a2a",
    "name": "Lil' Jonnys Taco House",
    "street_address": "3601 N PanAm Expy",
    "city": "San Antonio",
    "state": "TX",
    "zip": "78219",
    "latitude": 29.4480457,
    "longitude": -98.4282989,
    "phone": "(210) 227-7533",
    "website": "",
    "yelp_id": null,
    "google_rating": 4.3,
    "google_price_level": 1,
    "google_user_ratings_total": null,
    "created_at": "2025-06-08T05:15:47.011951",
    "updated_at": "2025-06-08T05:15:47.011951"
  },
  {
    "id": "a087def4-d31c-4dea-82a6-63fe15564698",
    "name": "LAEPOCADEOROBIRRIASATX",
    "street_address": "4919 S Flores St",
    "city": "San Antonio",
    "state": "TX",
    "zip": "78214",
    "latitude": 29.3771629,
    "longitude": -98.499889,
    "phone": "(210) 984-2528",
    "website": "",
    "yelp_id": null,
    "google_rating": 4.5,
    "google_price_level": 2,
    "google_user_ratings_total": null,
    "created_at": "2025-06-08T05:15:43.802088",
    "updated_at": "2025-06-08T05:15:43.802088"
  },
  {
    "id": "a3e8fc17-a111-4e65-ab4d-3c8e85ec7a78",
    "name": "Taco Broadway",
    "street_address": "3610 Broadway",
    "city": "San Antonio",
    "state": "TX",
    "zip": "78209",
    "latitude": 29.4596519,
    "longitude": -98.46752029999999,
    "phone": "(210) 758-5231",
    "website": "https://www.facebook.com/carnitasypozole/",
    "yelp_id": null,
    "google_rating": 4.6,
    "google_price_level": 1,
    "google_user_ratings_total": null,
    "created_at": "2025-06-08T05:15:45.533640",
    "updated_at": "2025-06-08T05:15:45.533640"
  },
  {
    "id": "a708ef23-44f8-4d1e-b3e6-2c42ed1eca11",
    "name": "Taqueria Rello",
    "street_address": "1522 W Southcross Blvd",
    "city": "San Antonio",
    "state": "TX",
    "zip": "78211",
    "latitude": 29.3678855,
    "longitude": -98.5338033,
    "phone": "(210) 932-2009",
    "website": "",
    "yelp_id": null,
    "google_rating": 4.2,
    "google_price_level": 1,
    "google_user_ratings_total": null,
    "created_at": "2025-06-08T05:15:33.023064",
    "updated_at": "2025-06-08T05:15:33.023064"
  },
  {
    "id": "a736a59e-6199-4c2f-8417-f58a6b499e91",
    "name": "Papos Tacos",
    "street_address": "909 Broadway",
    "city": "San Antonio",
    "state": "TX",
    "zip": "78215",
    "latitude": 29.4339593,
    "longitude": -98.4816194,
    "phone": "",
    "website": "https://www.facebook.com/profile.php?id=100082013933863",
    "yelp_id": null,
    "google_rating": 4.8,
    "google_price_level": 1,
    "google_user_ratings_total": null,
    "created_at": "2025-06-08T05:15:48.503918",
    "updated_at": "2025-06-08T05:15:48.503918"
  },
  {
    "id": "a7a8f47a-6db1-4d98-add2-83785de71016",
    "name": "El Milagrito Cafe",
    "street_address": "521 E Woodlawn Ave",
    "city": "San Antonio",
    "state": "TX",
    "zip": "78212",
    "latitude": 29.4526748,
    "longitude": -98.4850889,
    "phone": "(210) 737-8646",
    "website": "",
    "yelp_id": null,
    "google_rating": 4.4,
    "google_price_level": 1,
    "google_user_ratings_total": null,
    "created_at": "2025-06-08T05:15:27.762816",
    "updated_at": "2025-06-08T05:15:27.762816"
  },
  {
    "id": "a914e664-80fc-4c8c-ba71-305d3ff6473e",
    "name": "Tacos El Regio Rector",
    "street_address": "126 W Rector Dr",
    "city": "San Antonio",
    "state": "TX",
    "zip": "78216",
    "latitude": 29.5161418,
    "longitude": -98.4954801,
    "phone": "(210) 600-3217",
    "website": "https://www.tacoselregiosatx.com/",
    "yelp_id": null,
    "google_rating": 3.1,
    "google_price_level": 1,
    "google_user_ratings_total": null,
    "created_at": "2025-06-08T05:15:37.317915",
    "updated_at": "2025-06-08T05:15:37.317915"
  },
  {
    "id": "a9b1eb10-9c0c-4341-9750-a10585b29251",
    "name": "Mexico Taco Mexican Restaurant",
    "street_address": "203 S General McMullen Dr",
    "city": "San Antonio",
    "state": "TX",
    "zip": "78237",
    "latitude": 29.4289678,
    "longitude": -98.5545811,
    "phone": "(210) 432-5594",
    "website": "",
    "yelp_id": null,
    "google_rating": 4.2,
    "google_price_level": 1,
    "google_user_ratings_total": null,
    "created_at": "2025-06-08T05:15:30.020470",
    "updated_at": "2025-06-08T05:15:30.020470"
  },
  {
    "id": "abab79b1-5723-4aee-9a40-cc420373ff5f",
    "name": "Las Delicias Tacos #2",
    "street_address": "1901 W Commerce St",
    "city": "San Antonio",
    "state": "TX",
    "zip": "78207",
    "latitude": 29.4273581,
    "longitude": -98.5156841,
    "phone": "(210) 223-1800",
    "website": "",
    "yelp_id": null,
    "google_rating": 4.1,
    "google_price_level": 1,
    "google_user_ratings_total": null,
    "created_at": "2025-06-08T05:15:24.981873",
    "updated_at": "2025-06-08T05:15:24.981873"
  },
  {
    "id": "abbaa5da-f5d3-4933-8842-5eb5ad85061c",
    "name": "Taqueria Hacienda Tapatia",
    "street_address": "6402 N Interstate 35",
    "city": "San Antonio",
    "state": "TX",
    "zip": "78218",
    "latitude": 29.48837,
    "longitude": -98.401471,
    "phone": "(210) 599-3600",
    "website": "https://taqueriahaciendatapatia.cfd/",
    "yelp_id": null,
    "google_rating": 4.2,
    "google_price_level": 1,
    "google_user_ratings_total": null,
    "created_at": "2025-06-08T05:15:57.362390",
    "updated_at": "2025-06-08T05:15:57.362390"
  },
  {
    "id": "b086777a-135b-46a5-b109-02fc8e67df89",
    "name": "Eddie's Taco House",
    "street_address": "402 W Cevallos",
    "city": "San Antonio",
    "state": "TX",
    "zip": "78204",
    "latitude": 29.41063879999999,
    "longitude": -98.50588429999999,
    "phone": "(210) 222-2400",
    "website": "http://www.eddiestacohouses.com/",
    "yelp_id": null,
    "google_rating": 4.3,
    "google_price_level": 1,
    "google_user_ratings_total": null,
    "created_at": "2025-06-08T05:15:46.509076",
    "updated_at": "2025-06-08T05:15:46.509076"
  },
  {
    "id": "b18c6c60-f441-4cb3-8221-92e7fcc5a8c2",
    "name": "TINK - A - TAKO / Sandraâ€™s Mexican Food",
    "street_address": "2919 Blanco Rd",
    "city": "San Antonio",
    "state": "TX",
    "zip": "78212",
    "latitude": 29.4739045,
    "longitude": -98.5081668,
    "phone": "(210) 738-1161",
    "website": "",
    "yelp_id": null,
    "google_rating": 3.8,
    "google_price_level": 1,
    "google_user_ratings_total": null,
    "created_at": "2025-06-08T05:15:45.275920",
    "updated_at": "2025-06-08T05:15:45.275920"
  },
  {
    "id": "b1e48dd9-90ee-4445-a8d5-0c79631d86d0",
    "name": "Taqueria Nuevo Vallarta",
    "street_address": "3451 Roosevelt Ave",
    "city": "San Antonio",
    "state": "TX",
    "zip": "78214",
    "latitude": 29.3567033,
    "longitude": -98.4816907,
    "phone": "(210) 923-3058",
    "website": "",
    "yelp_id": null,
    "google_rating": 4.1,
    "google_price_level": 1,
    "google_user_ratings_total": null,
    "created_at": "2025-06-08T05:15:34.786552",
    "updated_at": "2025-06-08T05:15:34.786552"
  },
  {
    "id": "b6d81e16-e231-4d4d-a4ec-008252e15af7",
    "name": "Taqueria El Charro Tapatio",
    "street_address": "4600 Blanco Rd",
    "city": "San Antonio",
    "state": "TX",
    "zip": "78212",
    "latitude": 29.4900369,
    "longitude": -98.5074004,
    "phone": "(210) 340-2650",
    "website": "http://www.taqueriaelcharro.weebly.com/",
    "yelp_id": null,
    "google_rating": 4.2,
    "google_price_level": 1,
    "google_user_ratings_total": null,
    "created_at": "2025-06-08T05:15:35.765066",
    "updated_at": "2025-06-08T05:15:35.765066"
  },
  {
    "id": "b8c08bbd-8ebb-426b-ae56-93c4ebe45cef",
    "name": "Taqueria La Catrina Mexican Food",
    "street_address": "544 New Laredo Hwy",
    "city": "San Antonio",
    "state": "TX",
    "zip": "78211",
    "latitude": 29.3673503,
    "longitude": -98.54630060000001,
    "phone": "(210) 921-1090",
    "website": "",
    "yelp_id": null,
    "google_rating": 4.4,
    "google_price_level": null,
    "google_user_ratings_total": null,
    "created_at": "2025-06-08T05:15:25.471623",
    "updated_at": "2025-06-08T05:15:25.471623"
  },
  {
    "id": "b94b1a0c-d0ba-4380-b52f-1a4bf9558882",
    "name": "Taqueria Vallarta #3",
    "street_address": "8234 Broadway",
    "city": "San Antonio",
    "state": "TX",
    "zip": "78209",
    "latitude": 29.5127291,
    "longitude": -98.4658335,
    "phone": "(210) 829-0180",
    "website": "",
    "yelp_id": null,
    "google_rating": 4.1,
    "google_price_level": 1,
    "google_user_ratings_total": null,
    "created_at": "2025-06-08T05:15:29.267031",
    "updated_at": "2025-06-08T05:15:29.267031"
  },
  {
    "id": "bb7c55ed-82a6-427d-af7e-6fef55f3fc5c",
    "name": "Taqueria Lupita's Mexican Food",
    "street_address": "1502 Quintana Rd",
    "city": "San Antonio",
    "state": "TX",
    "zip": "78211",
    "latitude": 29.3744152,
    "longitude": -98.55454329999999,
    "phone": "(210) 923-2244",
    "website": "",
    "yelp_id": null,
    "google_rating": 4.3,
    "google_price_level": 1,
    "google_user_ratings_total": null,
    "created_at": "2025-06-08T05:15:34.005142",
    "updated_at": "2025-06-08T05:15:34.005142"
  },
  {
    "id": "bcb289b1-fbf7-4ba8-9aed-04d80f7cb4a4",
    "name": "El Itacate Tacos",
    "street_address": "2501 Nogalitos St",
    "city": "San Antonio",
    "state": "TX",
    "zip": "78225",
    "latitude": 29.3901017,
    "longitude": -98.5209138,
    "phone": "(210) 922-7191",
    "website": "",
    "yelp_id": null,
    "google_rating": 4.4,
    "google_price_level": 1,
    "google_user_ratings_total": null,
    "created_at": "2025-06-08T05:15:29.030737",
    "updated_at": "2025-06-08T05:15:29.030737"
  },
  {
    "id": "bdff8ee1-4a84-45a5-af54-6ef3630e3680",
    "name": "Rocky's Taco House",
    "street_address": "1938 Dollarhide Ave",
    "city": "San Antonio",
    "state": "TX",
    "zip": "78223",
    "latitude": 29.3676987,
    "longitude": -98.4381607,
    "phone": "(210) 333-0442",
    "website": "http://www.rockystacohouse.com/",
    "yelp_id": null,
    "google_rating": 3.8,
    "google_price_level": 1,
    "google_user_ratings_total": null,
    "created_at": "2025-06-08T05:15:44.766033",
    "updated_at": "2025-06-08T05:15:44.766033"
  },
  {
    "id": "bffe9db5-bc8b-4103-972e-7489588178ab",
    "name": "TACOS RIO GRANDE",
    "street_address": "1121 W Hildebrand Ave",
    "city": "San Antonio",
    "state": "TX",
    "zip": "78201",
    "latitude": 29.466706,
    "longitude": -98.51229699999999,
    "phone": "(210) 900-3940",
    "website": "https://www.facebook.com/TRGtaqueria/",
    "yelp_id": null,
    "google_rating": 4.6,
    "google_price_level": 1,
    "google_user_ratings_total": null,
    "created_at": "2025-06-08T05:15:58.370202",
    "updated_at": "2025-06-08T05:15:58.370202"
  },
  {
    "id": "c186e9e6-091b-4edf-b3cb-f0a7905525e5",
    "name": "Fajita Taco Place",
    "street_address": "8315 McCullough Ave",
    "city": "San Antonio",
    "state": "TX",
    "zip": "78216",
    "latitude": 29.514519,
    "longitude": -98.4921407,
    "phone": "(210) 349-7276",
    "website": "http://fajitatacoplace.com/",
    "yelp_id": null,
    "google_rating": 4.3,
    "google_price_level": 1,
    "google_user_ratings_total": null,
    "created_at": "2025-06-08T05:15:39.980991",
    "updated_at": "2025-06-08T05:15:39.980991"
  },
  {
    "id": "c207385d-9614-4a15-b82b-6756a0314e3e",
    "name": "Taqueria El Rodeo De Jalisco",
    "street_address": "4044 Culebra Rd",
    "city": "San Antonio",
    "state": "TX",
    "zip": "78228",
    "latitude": 29.448167,
    "longitude": -98.584401,
    "phone": "(210) 432-8984",
    "website": "https://taqueria-el-rodeo-de-jalisco.shop/",
    "yelp_id": null,
    "google_rating": 4.3,
    "google_price_level": 1,
    "google_user_ratings_total": null,
    "created_at": "2025-06-08T05:15:32.522141",
    "updated_at": "2025-06-08T05:15:32.522141"
  },
  {
    "id": "c9cc4013-fa44-4012-8abe-d11355054cf8",
    "name": "El Chilango Tacos",
    "street_address": "4723 Rittiman Rd",
    "city": "San Antonio",
    "state": "TX",
    "zip": "78218",
    "latitude": 29.4842643,
    "longitude": -98.39903249999999,
    "phone": "(210) 952-1092",
    "website": "",
    "yelp_id": null,
    "google_rating": 4.7,
    "google_price_level": null,
    "google_user_ratings_total": null,
    "created_at": "2025-06-08T05:15:23.436539",
    "updated_at": "2025-06-08T05:15:23.436539"
  },
  {
    "id": "cad17137-0c12-4e2e-82f7-a10a78c3b0d3",
    "name": "Vallarta Taco",
    "street_address": "1818 Goliad Rd",
    "city": "San Antonio",
    "state": "TX",
    "zip": "78223",
    "latitude": 29.3683861,
    "longitude": -98.4429586,
    "phone": "(210) 333-8226",
    "website": "",
    "yelp_id": null,
    "google_rating": 4.6,
    "google_price_level": null,
    "google_user_ratings_total": null,
    "created_at": "2025-06-08T05:15:26.968292",
    "updated_at": "2025-06-08T05:15:26.968292"
  },
  {
    "id": "ce1f91a4-20d3-44d9-b371-4dadd1d46359",
    "name": "Los Laureles",
    "street_address": "1918 West Ave",
    "city": "San Antonio",
    "state": "TX",
    "zip": "78201",
    "latitude": 29.4791635,
    "longitude": -98.525842,
    "phone": "(210) 736-1255",
    "website": "",
    "yelp_id": null,
    "google_rating": 4.2,
    "google_price_level": 1,
    "google_user_ratings_total": null,
    "created_at": "2025-06-08T05:15:25.718898",
    "updated_at": "2025-06-08T05:15:25.718898"
  },
  {
    "id": "d06d9c47-7d86-47e1-a1ee-2406deb4b78c",
    "name": "Tito's Mexican Restaurant",
    "street_address": "955 S Alamo St",
    "city": "San Antonio",
    "state": "TX",
    "zip": "78205",
    "latitude": 29.4141238,
    "longitude": -98.49093620000001,
    "phone": "(210) 212-8226",
    "website": "http://titosrestaurant.com/",
    "yelp_id": null,
    "google_rating": 4.3,
    "google_price_level": 1,
    "google_user_ratings_total": null,
    "created_at": "2025-06-08T05:15:47.992519",
    "updated_at": "2025-06-08T05:15:47.992519"
  },
  {
    "id": "d3487e0e-5800-4a72-b0c8-86ca3e80deb0",
    "name": "Taqueria El Ranchero de Jalisco",
    "street_address": "505 Fair Ave",
    "city": "San Antonio",
    "state": "TX",
    "zip": "78223",
    "latitude": 29.3856922,
    "longitude": -98.4692332,
    "phone": "(210) 957-0515",
    "website": "https://elrancherotaqueria.net/",
    "yelp_id": null,
    "google_rating": 4.1,
    "google_price_level": 1,
    "google_user_ratings_total": null,
    "created_at": "2025-06-08T05:15:30.509579",
    "updated_at": "2025-06-08T05:15:30.509579"
  },
  {
    "id": "d370e82b-96ef-485f-a242-6fa8252b09e2",
    "name": "Taqueria Los Cuates",
    "street_address": "732 S Alamo St",
    "city": "San Antonio",
    "state": "TX",
    "zip": "78205",
    "latitude": 29.4163523,
    "longitude": -98.488676,
    "phone": "(210) 999-5274",
    "website": "",
    "yelp_id": null,
    "google_rating": 4.6,
    "google_price_level": null,
    "google_user_ratings_total": null,
    "created_at": "2025-06-08T05:15:30.778048",
    "updated_at": "2025-06-08T05:15:30.778048"
  },
  {
    "id": "d50b7740-b2bc-4ed2-903b-0a55fa51e25a",
    "name": "Frijoles Mexican Restaurant",
    "street_address": "301 N WW White Rd",
    "city": "San Antonio",
    "state": "TX",
    "zip": "78219",
    "latitude": 29.4359471,
    "longitude": -98.40594569999999,
    "phone": "(210) 333-9432",
    "website": "http://runinout.com/Frijoles-Mexican-Restaurant-San-Antonio-TX",
    "yelp_id": null,
    "google_rating": 3.8,
    "google_price_level": 1,
    "google_user_ratings_total": null,
    "created_at": "2025-06-08T05:15:52.781032",
    "updated_at": "2025-06-08T05:15:52.781032"
  },
  {
    "id": "dec5859e-526d-434b-b472-3dea85b31833",
    "name": "Taco Express Cafe",
    "street_address": "3659 Culebra Rd",
    "city": "San Antonio",
    "state": "TX",
    "zip": "78228",
    "latitude": 29.4501436,
    "longitude": -98.57452699999999,
    "phone": "(210) 263-9899",
    "website": "",
    "yelp_id": null,
    "google_rating": 4.3,
    "google_price_level": 1,
    "google_user_ratings_total": null,
    "created_at": "2025-06-08T05:15:50.484634",
    "updated_at": "2025-06-08T05:15:50.484634"
  },
  {
    "id": "dfc97c64-d5eb-4716-bbbb-4ecd5232b6fa",
    "name": "Nicha's Comida Mexicana - Southside",
    "street_address": "3119 Roosevelt Ave",
    "city": "San Antonio",
    "state": "TX",
    "zip": "78214",
    "latitude": 29.3658264,
    "longitude": -98.4817425,
    "phone": "(210) 922-3330",
    "website": "https://www.fooddiscoveryapp.com/san-antonio/nichas-comida-mexicana-southside",
    "yelp_id": null,
    "google_rating": 4.3,
    "google_price_level": 2,
    "google_user_ratings_total": null,
    "created_at": "2025-06-08T05:16:00.569414",
    "updated_at": "2025-06-08T05:16:00.569414"
  },
  {
    "id": "e020af0c-76a7-4920-a6e8-158acd0eae98",
    "name": "Taqueria Datapoint #2-Zarzamora Street Location",
    "street_address": "1702 W Gramercy Pl",
    "city": "San Antonio",
    "state": "TX",
    "zip": "78201",
    "latitude": 29.46100149999999,
    "longitude": -98.52322319999999,
    "phone": "(210) 733-1323",
    "website": "https://taqueriadatapoint.net/",
    "yelp_id": null,
    "google_rating": 4.2,
    "google_price_level": 1,
    "google_user_ratings_total": null,
    "created_at": "2025-06-08T05:15:57.867646",
    "updated_at": "2025-06-08T05:15:57.867646"
  },
  {
    "id": "e27adcc6-ffa1-4f76-8a6e-16583ece60c9",
    "name": "Las Palapas - Austin Hwy",
    "street_address": "1208 Austin Hwy",
    "city": "San Antonio",
    "state": "TX",
    "zip": "78209",
    "latitude": 29.4872365,
    "longitude": -98.4465058,
    "phone": "(210) 598-8735",
    "website": "https://www.laspalapas.com/",
    "yelp_id": null,
    "google_rating": 4.1,
    "google_price_level": 1,
    "google_user_ratings_total": null,
    "created_at": "2025-06-08T05:15:50.244259",
    "updated_at": "2025-06-08T05:15:50.244259"
  },
  {
    "id": "e3504308-e608-4d4b-b4e1-f8ab16f75bc8",
    "name": "TAQUERIA ELRANCHERO DE JALISCO",
    "street_address": "502 Porter St",
    "city": "San Antonio",
    "state": "TX",
    "zip": "78210",
    "latitude": 29.4055553,
    "longitude": -98.4610455,
    "phone": "(210) 534-0180",
    "website": "",
    "yelp_id": null,
    "google_rating": 4.1,
    "google_price_level": null,
    "google_user_ratings_total": null,
    "created_at": "2025-06-08T05:15:40.505653",
    "updated_at": "2025-06-08T05:15:40.505653"
  },
  {
    "id": "e45316c5-765d-422f-8e40-84541857a988",
    "name": "Sabores Cali-Baja Mexican Grill",
    "street_address": "2414 Babcock Rd #100",
    "city": "San Antonio",
    "state": "TX",
    "zip": "78229",
    "latitude": 29.5051795,
    "longitude": -98.58560659999999,
    "phone": "(210) 255-1832",
    "website": "https://saboresbajacali.com/",
    "yelp_id": null,
    "google_rating": 4.8,
    "google_price_level": 2,
    "google_user_ratings_total": null,
    "created_at": "2025-06-08T05:15:55.090185",
    "updated_at": "2025-06-08T05:15:55.090185"
  },
  {
    "id": "e7361e61-b729-4241-83ec-e894fd472156",
    "name": "La Parrilla 2",
    "street_address": "3719 SE Military Dr",
    "city": "San Antonio",
    "state": "TX",
    "zip": "78223",
    "latitude": 29.35462369999999,
    "longitude": -98.42314019999999,
    "phone": "(210) 359-9200",
    "website": "",
    "yelp_id": null,
    "google_rating": 3.9,
    "google_price_level": 1,
    "google_user_ratings_total": null,
    "created_at": "2025-06-08T05:15:56.074254",
    "updated_at": "2025-06-08T05:15:56.074254"
  },
  {
    "id": "e99d1a5d-4c02-45ae-aaa3-1678d2946f69",
    "name": "Blanco Cafe",
    "street_address": "1720 Blanco Rd",
    "city": "San Antonio",
    "state": "TX",
    "zip": "78212",
    "latitude": 29.4622481,
    "longitude": -98.50767379999999,
    "phone": "(210) 732-6480",
    "website": "http://blancocafesa.com/",
    "yelp_id": null,
    "google_rating": 4.4,
    "google_price_level": 1,
    "google_user_ratings_total": null,
    "created_at": "2025-06-08T05:16:01.286628",
    "updated_at": "2025-06-08T05:16:01.286628"
  },
  {
    "id": "ebca5559-4838-4e02-b6da-5db55453f29a",
    "name": "Rolando's Super Tacos # 1",
    "street_address": "919 W Hildebrand Ave",
    "city": "San Antonio",
    "state": "TX",
    "zip": "78201",
    "latitude": 29.4667244,
    "longitude": -98.50866409999999,
    "phone": "(210) 549-5950",
    "website": "https://maricelarmendez.wixsite.com/rolandos",
    "yelp_id": null,
    "google_rating": 4.2,
    "google_price_level": 1,
    "google_user_ratings_total": null,
    "created_at": "2025-06-08T05:15:27.482338",
    "updated_at": "2025-06-08T05:15:27.482338"
  },
  {
    "id": "ecd8c530-ac32-47ee-9d5c-86e5482c172e",
    "name": "The Original Mexican Restaurant",
    "street_address": "528 River Walk St",
    "city": "San Antonio",
    "state": "TX",
    "zip": "78205",
    "latitude": 29.4243731,
    "longitude": -98.48842060000001,
    "phone": "(210) 224-9951",
    "website": "https://www.originalmexican.com/",
    "yelp_id": null,
    "google_rating": 3.3,
    "google_price_level": 2,
    "google_user_ratings_total": null,
    "created_at": "2025-06-08T05:15:54.301925",
    "updated_at": "2025-06-08T05:15:54.301925"
  },
  {
    "id": "ee5528a4-1631-4993-beef-b91f4da7101d",
    "name": "Las Palmas",
    "street_address": "2911 Roosevelt Ave",
    "city": "San Antonio",
    "state": "TX",
    "zip": "78214",
    "latitude": 29.37059009999999,
    "longitude": -98.4815476,
    "phone": "(210) 928-7980",
    "website": "",
    "yelp_id": null,
    "google_rating": 4.4,
    "google_price_level": 1,
    "google_user_ratings_total": null,
    "created_at": "2025-06-08T05:15:55.337521",
    "updated_at": "2025-06-08T05:15:55.337521"
  },
  {
    "id": "eeef5755-9290-4b7d-98ea-41e68b1cade3",
    "name": "Mini Tacos Toribio",
    "street_address": "1809 SW Military Dr",
    "city": "San Antonio",
    "state": "TX",
    "zip": "78221",
    "latitude": 29.35715739999999,
    "longitude": -98.5219489,
    "phone": "(210) 946-0895",
    "website": "",
    "yelp_id": null,
    "google_rating": 4.4,
    "google_price_level": 1,
    "google_user_ratings_total": null,
    "created_at": "2025-06-08T05:15:49.015076",
    "updated_at": "2025-06-08T05:15:49.015076"
  },
  {
    "id": "f22f8f4c-7483-47fa-a2dc-0a6b49923aed",
    "name": "El Tipico Mex Food y Cantina",
    "street_address": "2511 SE Military Dr",
    "city": "San Antonio",
    "state": "TX",
    "zip": "78223",
    "latitude": 29.3529247,
    "longitude": -98.4531593,
    "phone": "(210) 333-9000",
    "website": "",
    "yelp_id": null,
    "google_rating": 4.2,
    "google_price_level": 1,
    "google_user_ratings_total": null,
    "created_at": "2025-06-08T05:15:57.118239",
    "updated_at": "2025-06-08T05:15:57.118239"
  },
  {
    "id": "f523bb98-8f94-4f1e-92d0-49c8310f3236",
    "name": "Patty's Taco House #1",
    "street_address": "2422 S Hackberry St",
    "city": "San Antonio",
    "state": "TX",
    "zip": "78210",
    "latitude": 29.3922846,
    "longitude": -98.47314519999999,
    "phone": "(210) 534-3395",
    "website": "https://pattystacohousesa.com/",
    "yelp_id": null,
    "google_rating": 4.2,
    "google_price_level": 1,
    "google_user_ratings_total": null,
    "created_at": "2025-06-08T05:15:46.269869",
    "updated_at": "2025-06-08T05:15:46.269869"
  },
  {
    "id": "f6be669b-e01d-4ee9-9a82-146c2ad43bd4",
    "name": "Taqueria La Tapatia",
    "street_address": "538 Fair Ave",
    "city": "San Antonio",
    "state": "TX",
    "zip": "78223",
    "latitude": 29.3839312,
    "longitude": -98.4676181,
    "phone": "(210) 532-9395",
    "website": "",
    "yelp_id": null,
    "google_rating": 3.9,
    "google_price_level": 1,
    "google_user_ratings_total": null,
    "created_at": "2025-06-08T05:15:34.524088",
    "updated_at": "2025-06-08T05:15:34.524088"
  },
  {
    "id": "f7250eee-2536-4e77-9fff-520f2a6444ac",
    "name": "Taqueria Perla Tapatia",
    "street_address": "5102 Rittiman Rd",
    "city": "San Antonio",
    "state": "TX",
    "zip": "78218",
    "latitude": 29.4835953,
    "longitude": -98.3914077,
    "phone": "(210) 662-2919",
    "website": "https://www.facebook.com/Taqueria-Perla-Tapatia-116703768353668/",
    "yelp_id": null,
    "google_rating": 4.0,
    "google_price_level": 1,
    "google_user_ratings_total": null,
    "created_at": "2025-06-08T05:15:28.496077",
    "updated_at": "2025-06-08T05:15:28.496077"
  },
  {
    "id": "f76c692d-d21b-4215-a54c-a221231331e9",
    "name": "Taqueria Vallarta #2",
    "street_address": "1430 E CÃ©sar E. ChÃ¡vez Blvd",
    "city": "San Antonio",
    "state": "TX",
    "zip": "78210",
    "latitude": 29.4090309,
    "longitude": -98.47351119999999,
    "phone": "(210) 534-5285",
    "website": "https://kairospublicidadbilingue.com/taqueria-vallarta/",
    "yelp_id": null,
    "google_rating": 4.2,
    "google_price_level": 1,
    "google_user_ratings_total": null,
    "created_at": "2025-06-08T05:15:28.267989",
    "updated_at": "2025-06-08T05:15:28.267989"
  },
  {
    "id": "f83abe53-9e43-40f9-ae1e-a63ffacf17f9",
    "name": "Original Blanco Cafe",
    "street_address": "7934 Fredericksburg Rd",
    "city": "San Antonio",
    "state": "TX",
    "zip": "78229",
    "latitude": 29.5122222,
    "longitude": -98.5677778,
    "phone": "(210) 692-3233",
    "website": "http://theoriginalblancocafe.com/",
    "yelp_id": null,
    "google_rating": 4.1,
    "google_price_level": 2,
    "google_user_ratings_total": null,
    "created_at": "2025-06-08T05:15:53.050378",
    "updated_at": "2025-06-08T05:15:53.050378"
  },
  {
    "id": "f9029b92-c65b-4a47-a8dd-3a94bc483156",
    "name": "Taqueria Vallarta # 1",
    "street_address": "829 S General McMullen Dr",
    "city": "San Antonio",
    "state": "TX",
    "zip": "78237",
    "latitude": 29.41908979999999,
    "longitude": -98.5557886,
    "phone": "(210) 432-8832",
    "website": "",
    "yelp_id": null,
    "google_rating": 4.0,
    "google_price_level": 1,
    "google_user_ratings_total": null,
    "created_at": "2025-06-08T05:15:36.840290",
    "updated_at": "2025-06-08T05:15:36.840290"
  },
  {
    "id": "fda20053-f8ea-4cbf-bb60-2becb399da51",
    "name": "Taco Grill",
    "street_address": "4043 E Houston St",
    "city": "San Antonio",
    "state": "TX",
    "zip": "78220",
    "latitude": 29.425081,
    "longitude": -98.418911,
    "phone": "(210) 810-6915",
    "website": "",
    "yelp_id": null,
    "google_rating": 4.2,
    "google_price_level": 1,
    "google_user_ratings_total": null,
    "created_at": "2025-06-08T05:15:41.050419",
    "updated_at": "2025-06-08T05:15:41.050419"
  },
  {
    "id": "feb300fa-6899-4a54-8c89-2a32df507358",
    "name": "LOS PINCHES TACOS",
    "street_address": "3850 Culebra Rd",
    "city": "San Antonio",
    "state": "TX",
    "zip": "78228",
    "latitude": 29.44963049999999,
    "longitude": -98.5796888,
    "phone": "(210) 269-5261",
    "website": "",
    "yelp_id": null,
    "google_rating": 4.5,
    "google_price_level": 1,
    "google_user_ratings_total": null,
    "created_at": "2025-06-08T05:15:37.093889",
    "updated_at": "2025-06-08T05:15:37.093889"
  },
  {
    "id": "fecdd804-e74f-4e8b-8575-0d904fd855cb",
    "name": "La Maceta Tapatios",
    "street_address": "125 Lamar St",
    "city": "San Antonio",
    "state": "TX",
    "zip": "78202",
    "latitude": 29.4319684,
    "longitude": -98.4779987,
    "phone": "",
    "website": "",
    "yelp_id": null,
    "google_rating": 4.1,
    "google_price_level": null,
    "google_user_ratings_total": null,
    "created_at": "2025-06-08T05:15:51.242209",
    "updated_at": "2025-06-08T05:15:51.242209"
  }
]